n,amostra,Data,nome,proprietario,Endereço,Bairro,Cód. Bairro,Lat,Long,raça,sexo,vacina,idade,estado_geral,desidratacao,mucosas,perda_apetite,emagrecimente,caquexia,apatia,disturbios_urinarios,alopecia_local,alopecia_generalizada,epistaxe,descamacao_furfuracea,pelo_opaco,ulceras_crostrosas,onicogrifone,paresia,dor_palpacao,alteracoes_oftalmologicas,edema_membros,adenite,hepatomegalia,ARTRALGIA,TR,ELISA,RIFI,LVC,Eutanásia,Morte,Tratamento,Extravio
1,34,3/19/2009,igor,fátima severo coelho,"marechal deodoro,2526",Nova Esperança,9,-29.76193056,-57.09605,Poodle,1,0,2,1,0,2,0,0,0,0,0,0,0,0,0,0,0,0,0,0,0,0,0,0,0,0,1,1,1,0,0,0,
2,35,4/22/2009,luli,eusébio ramos,"general canabarro,1745",Nova Esperança,9,-29.76262222,-57.09635278,Poodle,2,0,2,1,0,2,0,0,0,0,0,0,0,0,0,0,0,0,0,0,0,0,0,0,0,0,1,1,1,0,0,0,
3,36,4/22/2009,luna,jair rodrigues,13 de maio,São Miguel,2,-29.76328611,-57.08952222,Bulldog inglês,2,0,2,1,0,2,0,0,0,0,0,1,0,0,1,1,0,0,0,0,1,0,0,0,0,0,1,1,1,1,0,0,
4,37,5/15/2009,baiuca,maira scherer,duque de caxias,São Miguel,2,-29.76483333,-57.08803889,Boxer,2,0,2,1,0,2,0,0,0,0,0,0,0,0,0,0,0,0,0,0,0,0,0,0,0,0,1,1,1,1,0,0,
5,39,5/16/2009,lili,maria inês rotel messa,,Prolar,12,-29.78691389,-57.10517222,SRD,2,0,2,1,0,2,0,0,0,0,0,0,0,0,1,1,0,0,0,0,0,0,0,1,0,0,1,1,1,1,,,
6,,9/8/2009,perdida,,"general canabarro, 1383  ",Nova Esperança,9,-29.76261111,-57.10069722,SRD,2,0,2,1,0,2,0,0,0,0,0,0,0,0,0,0,0,0,0,0,0,0,0,0,0,0,1,1,1,0,0,0,1
7,28,11/27/2009,thor,marta velasquez de oliveira,"benjamin constant , 2657",São João,8,-29.76287778,-57.07655556,Pitbull,1,0,2,2,0,1,1,1,0,0,0,1,0,0,1,1,1,1,0,0,0,0,0,0,0,0,1,1,1,1,0,0,
